#HEADINGA,COM1_1,0,52.5,FINESTEERING,2123,291239.000,02000000,22a9,15823;SOL_COMPUTED,NARROW_INT,1.001819491,3.302720785,-3.427642822,0.0,0.211446926,0.353545070,"T28M",33,25,25,22,04,01,30,33*ffa44556
#HEADINGA,COM1_1,0,52.5,FINESTEERING,2123,291241.000,02000000,22a9,15823;SOL_COMPUTED,NARROW_INT,1.003130555,3.349931955,-3.550201416,0.0,0.209853515,0.351843208,"T28M",33,25,25,22,04,01,30,33*bc3fb6b0
#HEADINGA,COM1_1,0,50.0,FINESTEERING,2123,291242.000,02000000,22a9,15823;SOL_COMPUTED,NARROW_INT,1.002055764,3.349952221,-3.547546387,0.0,0.211412206,0.353221476,"T28M",33,25,25,22,04,01,30,33*83538d7c
#HEADINGA,COM1_1,0,50.0,FINESTEERING,2123,291243.000,02000000,22a9,15823;SOL_COMPUTED,NARROW_INT,1.002745032,3.422576189,-3.473083496,0.0,0.211406782,0.353547603,"T28M",33,25,25,22,04,01,30,33*00b79b6d
#HEADINGA,COM1_1,0,53.0,FINESTEERING,2123,291244.000,02000000,22a9,15823;SOL_COMPUTED,NARROW_INT,1.002512455,3.393669367,-3.509857178,0.0,0.212466165,0.355332583,"T28M",33,25,25,22,04,01,30,33*2868997d
#HEADINGA,COM1_1,0,52.5,FINESTEERING,2123,291245.000,02000000,22a9,15823;SOL_COMPUTED,NARROW_INT,1.001422524,3.381871223,-3.297882080,0.0,0.212055981,0.354356468,"T28M",33,25,25,22,04,01,30,33*cb1d1765
#HEADINGA,COM1_1,0,52.5,FINESTEERING,2123,291246.000,02000000,22a9,15823;SOL_COMPUTED,NARROW_INT,1.001016617,3.395376921,-3.437530518,0.0,0.210029572,0.351963758,"T28M",33,25,25,22,04,01,30,33*07bfbcc4
#HEADINGA,COM1_1,0,51.5,FINESTEERING,2123,291247.000,02000000,22a9,15823;SOL_COMPUTED,NARROW_INT,1.000817776,3.398449659,-3.284790039,0.0,0.210535944,0.353602678,"T28M",33,25,25,22,04,01,30,33*9c70f7ec
#HEADINGA,COM1_1,0,51.5,FINESTEERING,2123,291248.000,02000000,22a9,15823;SOL_COMPUTED,NARROW_INT,1.001264691,3.358197451,-3.369964600,0.0,0.212703317,0.356075108,"T28M",33,25,25,22,04,01,30,33*8ac661c2
#HEADINGA,COM1_1,0,50.5,FINESTEERING,2123,291249.000,02000000,22a9,15823;SOL_COMPUTED,NARROW_INT,1.002518892,3.371430874,-3.394195557,0.0,0.212041363,0.354257375,"T28M",33,25,25,22,04,01,30,33*a60d86e2
#HEADINGA,COM1_1,0,50.5,FINESTEERING,2123,291250.000,02000000,22a9,15823;SOL_COMPUTED,NARROW_INT,1.003069997,3.513411045,-3.367004395,0.0,0.210574940,0.351995558,"T28M",33,25,25,22,04,01,30,33*1c4058e9
#HEADINGA,COM1_1,0,51.0,FINESTEERING,2123,291251.000,02000000,22a9,15823;SOL_COMPUTED,NARROW_INT,1.003221989,3.529567003,-3.410919189,0.0,0.209090233,0.349526823,"T28M",33,25,25,22,04,01,30,33*5a93f8af
#HEADINGA,COM1_1,0,50.0,FINESTEERING,2123,291252.000,02000000,22a9,15823;SOL_COMPUTED,NARROW_INT,1.003916860,3.468464613,-3.560913086,0.0,0.209023893,0.350395977,"T28M",33,25,25,22,04,01,30,33*09f96492
#HEADINGA,COM1_1,0,50.0,FINESTEERING,2123,291253.000,02000000,22a9,15823;SOL_COMPUTED,NARROW_INT,1.004583716,3.401123047,-3.527465820,0.0,0.211545169,0.353557587,"T28M",33,25,25,22,04,01,30,33*1dfb1559
#HEADINGA,COM1_1,0,51.5,FINESTEERING,2123,291254.000,02000000,22a9,15823;SOL_COMPUTED,NARROW_INT,1.003989100,3.465387106,-3.520202637,0.0,0.213716760,0.356502950,"T28M",33,25,25,22,04,01,30,33*dcca3f63
#HEADINGA,COM1_1,0,54.5,FINESTEERING,2123,291255.000,02000000,22a9,15823;SOL_COMPUTED,NARROW_INT,1.004577279,3.526020765,-3.574798584,0.0,0.211882427,0.354799390,"T28M",33,25,25,22,04,01,30,33*74b1f257
#HEADINGA,COM1_1,0,54.5,FINESTEERING,2123,291256.000,02000000,22a9,15823;SOL_COMPUTED,NARROW_INT,1.002662182,3.480112553,-3.782867432,0.0,0.213549525,0.356085300,"T28M",33,25,25,22,04,01,30,33*c2390368
#HEADINGA,COM1_1,0,52.5,FINESTEERING,2123,291257.000,02000000,22a9,15823;SOL_COMPUTED,NARROW_INT,1.002766609,3.512301922,-3.690826416,0.0,0.211712584,0.353008568,"T28M",33,25,25,22,04,01,30,33*cb894b23
#HEADINGA,COM1_1,0,52.0,FINESTEERING,2123,291258.000,02000000,22a9,15823;SOL_COMPUTED,NARROW_INT,1.002917051,3.575620174,-3.578430176,0.0,0.215554118,0.357805163,"T28M",33,25,25,22,04,01,30,33*86a88cc2
#HEADINGA,COM1_1,0,52.0,FINESTEERING,2123,291259.000,02000000,22a9,15823;SOL_COMPUTED,NARROW_INT,1.002594471,3.539032698,-3.611724854,0.0,0.213604778,0.354989737,"T28M",33,25,25,22,04,01,30,33*c01c77ed
#HEADINGA,COM1_1,0,52.0,FINESTEERING,2123,291260.000,02000000,22a9,15823;SOL_COMPUTED,NARROW_INT,1.002539277,3.487141848,-3.497009277,0.0,0.215917215,0.357872546,"T28M",33,25,25,22,04,01,30,33*20824e9a
#HEADINGA,COM1_1,0,52.0,FINESTEERING,2123,291261.000,02000000,22a9,15823;SOL_COMPUTED,NARROW_INT,1.001816273,3.553549528,-3.523590088,0.0,0.215358853,0.357687026,"T28M",33,25,25,22,04,01,30,33*530f8395
#HEADINGA,COM1_1,0,53.5,FINESTEERING,2123,291262.000,02000000,22a9,15823;SOL_COMPUTED,NARROW_INT,1.001527309,3.505640030,-3.605377197,0.0,0.212940022,0.354717046,"T28M",33,25,25,22,04,01,30,33*c5f8bd91
#HEADINGA,COM1_1,0,51.0,FINESTEERING,2123,291263.000,02000000,22a9,15823;SOL_COMPUTED,NARROW_INT,1.001476526,3.497328281,-3.587402344,0.0,0.210745603,0.351567566,"T28M",33,25,25,22,04,01,30,33*6b952f41
#HEADINGA,COM1_1,0,51.0,FINESTEERING,2123,291264.000,02000000,22a9,15823;SOL_COMPUTED,NARROW_INT,1.003116488,3.541795254,-3.495056152,0.0,0.210026860,0.350560069,"T28M",33,25,25,22,04,01,30,33*131a9314
#HEADINGA,COM1_1,0,50.5,FINESTEERING,2123,291265.000,02000000,22a9,15823;SOL_COMPUTED,NARROW_INT,1.002155900,3.534454823,-3.654052734,0.0,0.215054616,0.357378215,"T28M",33,25,25,22,04,01,30,33*d77926e5
#HEADINGA,COM1_1,0,50.5,FINESTEERING,2123,291266.000,02000000,22a9,15823;SOL_COMPUTED,NARROW_INT,1.003063560,3.547751188,-3.552185059,0.0,0.212944910,0.354175538,"T28M",33,25,25,22,04,01,30,33*2bfec5a6
#HEADINGA,COM1_1,0,51.5,FINESTEERING,2123,291267.000,02000000,22a9,15823;SOL_COMPUTED,NARROW_INT,1.002491713,3.505209446,-3.731781006,0.0,0.211323336,0.352331549,"T28M",33,25,25,22,04,01,30,33*a3957e0b
#HEADINGA,COM1_1,0,53.5,FINESTEERING,2123,291268.000,02000000,22a9,15823;SOL_COMPUTED,NARROW_INT,1.004924417,3.562952995,-3.646911621,0.0,0.209383711,0.349525124,"T28M",33,25,25,22,04,01,30,33*b508fcee
#HEADINGA,COM1_1,0,51.5,FINESTEERING,2123,291269.000,02000000,22a9,15823;SOL_COMPUTED,NARROW_INT,1.003125429,3.561460495,-3.649200439,0.0,0.210057497,0.351468444,"T28M",33,25,25,22,04,01,30,33*e532c550
#HEADINGA,COM1_1,0,49.5,FINESTEERING,2123,291270.000,02000000,22a9,15823;SOL_COMPUTED,NARROW_INT,1.003837943,3.532223701,-3.693603516,0.0,0.210549295,0.351754993,"T28M",33,25,25,22,04,01,30,33*40eabe72
#HEADINGA,COM1_1,0,49.5,FINESTEERING,2123,291271.000,02000000,22a9,15823;SOL_COMPUTED,NARROW_INT,1.003757238,3.560883760,-3.571594238,0.0,0.210628033,0.351272941,"T28M",33,25,25,22,04,01,30,33*18fc52f5
#HEADINGA,COM1_1,0,50.0,FINESTEERING,2123,291272.000,02000000,22a9,15823;SOL_COMPUTED,NARROW_INT,1.003480434,3.480497837,-3.578155518,0.0,0.210964739,0.351319015,"T28M",33,25,25,22,04,01,30,33*97f64f35
#HEADINGA,COM1_1,0,50.0,FINESTEERING,2123,291273.000,02000000,22a9,15823;SOL_COMPUTED,NARROW_INT,1.004325032,3.536780596,-3.575317383,0.0,0.213831410,0.356115252,"T28M",33,25,25,22,04,01,30,33*e156d9f7
#HEADINGA,COM1_1,0,50.0,FINESTEERING,2123,291274.000,02000000,22a9,15823;SOL_COMPUTED,NARROW_INT,1.003780603,3.538751364,-3.680847168,0.0,0.211497858,0.353483588,"T28M",33,25,25,22,04,01,30,33*0daf550a
#HEADINGA,COM1_1,0,49.0,FINESTEERING,2123,291275.000,02000000,22a9,15823;SOL_COMPUTED,NARROW_INT,1.004510045,3.490550995,-3.791442871,0.0,0.211643964,0.352507144,"T28M",33,25,25,22,04,01,30,33*25a7349a
#HEADINGA,COM1_1,0,49.0,FINESTEERING,2123,291276.000,02000000,22a9,15823;SOL_COMPUTED,NARROW_INT,1.003473878,3.506428480,-3.625213623,0.0,0.211303428,0.351659715,"T28M",33,25,25,22,04,01,30,33*aa44048f
#HEADINGA,COM1_1,0,50.0,FINESTEERING,2123,291277.000,02000000,22a9,15823;SOL_COMPUTED,NARROW_INT,1.002652884,3.515277863,-3.613983154,0.0,0.213417292,0.355633348,"T28M",33,25,25,22,04,01,30,33*5cc6eb67
#HEADINGA,COM1_1,0,50.0,FINESTEERING,2123,291278.000,02000000,22a9,15823;SOL_COMPUTED,NARROW_INT,1.001597762,3.473476648,-3.760650635,0.0,0.213818088,0.356909722,"T28M",33,25,25,22,04,01,30,33*57eb20e9
#HEADINGA,COM1_1,0,50.0,FINESTEERING,2123,291279.000,02000000,22a9,15823;SOL_COMPUTED,NARROW_INT,1.003822923,3.504968882,-3.610839844,0.0,0.213444725,0.356061637,"T28M",33,25,25,22,04,01,30,33*319488f3
#HEADINGA,COM1_1,0,50.0,FINESTEERING,2123,291280.000,02000000,22a9,15823;SOL_COMPUTED,NARROW_INT,1.002809286,3.527429104,-3.733947754,0.0,0.211701170,0.352990717,"T28M",33,25,25,22,04,01,30,33*229bb217
#HEADINGA,COM1_1,0,50.0,FINESTEERING,2123,291281.000,02000000,22a9,15823;SOL_COMPUTED,NARROW_INT,1.004076123,3.486416101,-3.648132324,0.0,0.211145133,0.352028131,"T28M",33,25,25,22,04,01,30,33*6a78e985
#HEADINGA,COM1_1,0,50.0,FINESTEERING,2123,291282.000,02000000,22a9,15823;SOL_COMPUTED,NARROW_INT,1.003479958,3.451936960,-3.884979248,0.0,0.211691424,0.353331566,"T28M",33,25,25,22,04,01,30,33*73c6caf7
#HEADINGA,COM1_1,0,50.5,FINESTEERING,2123,291283.000,02000000,22a9,15823;SOL_COMPUTED,NARROW_INT,1.002969265,3.479723692,-3.785675049,0.0,0.209710330,0.351387769,"T28M",33,25,25,22,04,01,30,33*e6ee0631
#HEADINGA,COM1_1,0,48.0,FINESTEERING,2123,291284.000,02000000,22a9,15823;SOL_COMPUTED,NARROW_INT,1.003288269,3.496119261,-3.566131592,0.0,0.209909081,0.351916790,"T28M",33,25,25,22,04,01,30,33*fb61ce1d
#HEADINGA,COM1_1,0,48.0,FINESTEERING,2123,291285.000,02000000,22a9,15823;SOL_COMPUTED,NARROW_INT,1.003518105,3.412155390,-3.695068359,0.0,0.209153309,0.350277007,"T28M",33,25,25,22,04,01,30,33*996b6620
#HEADINGA,COM1_1,0,51.0,FINESTEERING,2123,291286.000,02000000,22a9,15823;SOL_COMPUTED,NARROW_INT,1.003106117,3.469468117,-3.751464844,0.0,0.211773783,0.353676319,"T28M",33,25,25,22,04,01,30,33*9e4a935e
#HEADINGA,COM1_1,0,50.0,FINESTEERING,2123,291287.000,02000000,22a9,15823;SOL_COMPUTED,NARROW_INT,1.002774239,3.469486237,-3.825866699,0.0,0.212268934,0.355397642,"T28M",33,25,25,22,04,01,30,33*f0319668
#HEADINGA,COM1_1,0,50.0,FINESTEERING,2123,291288.000,02000000,22a9,15823;SOL_COMPUTED,NARROW_INT,1.001682162,3.438998222,-3.739990234,0.0,0.212695643,0.354422837,"T28M",33,25,25,22,04,01,30,33*de16df21
#HEADINGA,COM1_1,0,50.5,FINESTEERING,2123,291289.000,02000000,22a9,15823;SOL_COMPUTED,NARROW_INT,1.000846148,3.469297647,-3.779174805,0.0,0.213283554,0.355019212,"T28M",33,25,25,22,04,01,30,33*cccc8ddc
#HEADINGA,COM1_1,0,50.5,FINESTEERING,2123,291290.000,02000000,22a9,15823;SOL_COMPUTED,NARROW_INT,1.000212431,3.457703352,-3.847167969,0.0,0.211039901,0.352885723,"T28M",33,25,25,22,04,01,30,33*64970fbc
#HEADINGA,COM1_1,0,48.5,FINESTEERING,2123,291291.000,02000000,22a9,15823;SOL_COMPUTED,NARROW_INT,1.001449347,3.436644316,-3.760375977,0.0,0.211599410,0.354859769,"T28M",33,24,24,22,04,01,30,33*13dd81ad
#HEADINGA,COM1_1,0,48.0,FINESTEERING,2123,291292.000,02000000,22a9,15823;SOL_COMPUTED,NARROW_INT,0.999947727,3.476994038,-3.655426025,0.0,0.211506546,0.354502022,"T28M",33,24,24,22,04,01,30,33*73aaa4a7
#HEADINGA,COM1_1,0,48.0,FINESTEERING,2123,291293.000,02000000,22a9,15823;SOL_COMPUTED,NARROW_INT,0.998810887,3.396199226,-3.813171387,0.0,0.210050896,0.351264507,"T28M",33,24,24,22,04,01,30,33*bffd2d9c
#HEADINGA,COM1_1,0,49.0,FINESTEERING,2123,291294.000,02000000,22a9,15823;SOL_COMPUTED,NARROW_INT,0.999596477,3.479579687,-3.626159668,0.0,0.212593377,0.355042219,"T28M",33,24,24,22,04,01,30,33*1c08f868
#HEADINGA,COM1_1,0,49.0,FINESTEERING,2123,291295.000,02000000,22a9,15823;SOL_COMPUTED,NARROW_INT,1.000954866,3.492422819,-3.570190430,0.0,0.215192258,0.359573931,"T28M",33,24,24,22,04,01,30,33*d2bfb854
#HEADINGA,COM1_1,0,48.5,FINESTEERING,2123,291296.000,02000000,22a9,15823;SOL_COMPUTED,NARROW_INT,1.001094222,3.498309851,-3.606353760,0.0,0.212475345,0.355487227,"T28M",33,24,24,22,04,01,30,33*997808b4
#HEADINGA,COM1_1,0,48.5,FINESTEERING,2123,291297.000,02000000,22a9,15823;SOL_COMPUTED,NARROW_INT,1.001062632,3.484858990,-3.651702881,0.0,0.212414965,0.355004489,"T28M",33,24,24,22,04,01,30,33*accf002b
#HEADINGA,COM1_1,0,48.0,FINESTEERING,2123,291298.000,02000000,22a9,15823;SOL_COMPUTED,NARROW_INT,1.001432180,3.438291550,-3.646331787,0.0,0.211988047,0.355340928,"T28M",33,24,24,22,04,01,30,33*039fd740
#HEADINGA,COM1_1,0,47.5,FINESTEERING,2123,291299.000,02000000,22a9,15823;SOL_COMPUTED,NARROW_INT,1.001528740,3.513272047,-3.576354980,0.0,0.212281123,0.354412049,"T28M",33,24,24,22,04,01,30,33*e8cc9fd5
#HEADINGA,COM1_1,0,46.5,FINESTEERING,2123,291300.000,02000000,22a9,15823;SOL_COMPUTED,NARROW_INT,1.000024438,3.471271992,-3.537200928,0.0,0.210070819,0.351180911,"T28M",33,24,24,22,04,01,30,33*c272ffcf
#HEADINGA,COM1_1,0,46.5,FINESTEERING,2123,291301.000,02000000,22a9,15823;SOL_COMPUTED,NARROW_INT,1.000482440,3.482098818,-3.499145508,0.0,0.210831389,0.352207154,"T28M",32,24,24,22,04,01,30,33*731e61c2
#HEADINGA,COM1_1,0,46.5,FINESTEERING,2123,291302.000,02000000,22a9,15823;SOL_COMPUTED,NARROW_INT,1.000508308,3.524955273,-3.449859619,0.0,0.212843344,0.354348123,"T28M",32,24,24,22,04,01,30,33*88ccc81b
#HEADINGA,COM1_1,0,46.5,FINESTEERING,2123,291303.000,02000000,22a9,15823;SOL_COMPUTED,NARROW_INT,1.000101089,3.484025002,-3.435821533,0.0,0.212295786,0.353307754,"T28M",32,24,24,22,04,01,30,33*790b1c2a
#HEADINGA,COM1_1,0,48.5,FINESTEERING,2123,291304.000,02000000,22a9,15823;SOL_COMPUTED,NARROW_INT,1.000733018,3.449656725,-3.296539307,0.0,0.211992517,0.353026032,"T28M",32,24,24,22,04,01,30,33*190fe015
#HEADINGA,COM1_1,0,48.5,FINESTEERING,2123,291305.000,02000000,22a9,15823;SOL_COMPUTED,NARROW_INT,1.000092268,3.463524342,-3.348663330,0.0,0.212054685,0.353802383,"T28M",32,24,24,22,04,01,30,33*6cd59ee9
#HEADINGA,COM1_1,0,49.5,FINESTEERING,2123,291306.000,02000000,22a9,15823;SOL_COMPUTED,NARROW_INT,1.000714540,3.476390123,-3.402191162,0.0,0.211518958,0.352441013,"T28M",32,24,24,22,04,01,30,33*674f810c
#HEADINGA,COM1_1,0,49.5,FINESTEERING,2123,291307.000,02000000,22a9,15823;SOL_COMPUTED,NARROW_INT,1.000458837,3.522338390,-3.414398193,0.0,0.211411208,0.352253050,"T28M",32,24,24,22,04,01,30,33*20bce76f
#HEADINGA,COM1_1,0,50.0,FINESTEERING,2123,291308.000,02000000,22a9,15823;SOL_COMPUTED,NARROW_INT,1.000664115,3.453218460,-3.390533447,0.0,0.211205915,0.352287769,"T28M",32,24,24,22,04,01,30,33*e01495d1
#HEADINGA,COM1_1,0,52.0,FINESTEERING,2123,291309.000,02000000,22a9,15823;SOL_COMPUTED,NARROW_INT,1.001170993,3.545763493,-3.377044678,0.0,0.215300828,0.357816964,"T28M",32,24,24,22,04,01,30,33*5f41604d
#HEADINGA,COM1_1,0,52.5,FINESTEERING,2123,291310.000,02000000,22a9,15823;SOL_COMPUTED,NARROW_INT,1.001122952,3.501978159,-3.366485596,0.0,0.212722063,0.354253948,"T28M",32,24,24,22,04,01,30,33*9eedc110
#HEADINGA,COM1_1,0,50.5,FINESTEERING,2123,291311.000,02000000,22a9,15823;SOL_COMPUTED,NARROW_INT,1.002101541,3.516843081,-3.459991455,0.0,0.215015650,0.357018739,"T28M",32,24,24,22,04,01,30,33*38673ce5
#HEADINGA,COM1_1,0,50.0,FINESTEERING,2123,291312.000,02000000,22a9,15823;SOL_COMPUTED,NARROW_INT,1.002519965,3.543645382,-3.440032959,0.0,0.212045431,0.353445619,"T28M",32,24,24,22,04,01,30,33*20501f80
#HEADINGA,COM1_1,0,50.0,FINESTEERING,2123,291313.000,02000000,22a9,15823;SOL_COMPUTED,NARROW_INT,1.001890659,3.538556099,-3.431243896,0.0,0.211500570,0.351545125,"T28M",32,24,24,22,04,01,30,33*5b389ecd
#HEADINGA,COM1_1,0,51.0,FINESTEERING,2123,291314.000,02000000,22a9,15823;SOL_COMPUTED,NARROW_INT,1.002108216,3.510598660,-3.279724121,0.0,0.211465374,0.351462007,"T28M",32,24,24,22,04,01,30,33*d818f30f
#HEADINGA,COM1_1,0,50.5,FINESTEERING,2123,291315.000,02000000,22a9,15823;SOL_COMPUTED,NARROW_INT,1.001495600,3.532369375,-3.200317383,0.0,0.215817571,0.356884360,"T28M",32,24,24,22,04,01,30,33*1e7acaf1
#HEADINGA,COM1_1,0,50.0,FINESTEERING,2123,291316.000,02000000,22a9,15823;SOL_COMPUTED,NARROW_INT,1.000247121,3.496390820,-3.321350098,0.0,0.213149935,0.353899986,"T28M",32,24,24,22,04,01,30,33*bb330393
#HEADINGA,COM1_1,0,50.0,FINESTEERING,2123,291317.000,02000000,22a9,15823;SOL_COMPUTED,NARROW_INT,1.002411962,3.480360746,-3.502380371,0.0,0.211446196,0.351679027,"T28M",32,24,24,22,04,01,30,33*8b354ed6
#HEADINGA,COM1_1,0,50.5,FINESTEERING,2123,291318.000,02000000,22a9,15823;SOL_COMPUTED,NARROW_INT,1.000023127,3.561020851,-3.402557373,0.0,0.213351652,0.354456097,"T28M",32,24,24,22,04,01,30,33*eb74e097
#HEADINGA,COM1_1,0,50.0,FINESTEERING,2123,291319.000,02000000,22a9,15823;SOL_COMPUTED,NARROW_INT,1.001765013,3.602890968,-3.143951416,0.0,0.212790072,0.353097707,"T28M",32,24,24,22,04,01,30,33*2c6c991a
#HEADINGA,COM1_1,0,50.0,FINESTEERING,2123,291320.000,02000000,22a9,15823;SOL_COMPUTED,NARROW_INT,1.001491189,3.538993359,-3.369110107,0.0,0.211715057,0.352154762,"T28M",32,24,24,22,04,01,30,33*6f04200f
#HEADINGA,COM1_1,0,50.0,FINESTEERING,2123,291321.000,02000000,22a9,15823;SOL_COMPUTED,NARROW_INT,1.001185536,3.535082817,-3.424652100,0.0,0.212544233,0.353455663,"T28M",32,24,24,22,04,01,30,33*19c79b44
#HEADINGA,COM1_1,0,50.5,FINESTEERING,2123,291322.000,02000000,22a9,15823;SOL_COMPUTED,NARROW_INT,1.001612544,3.527708530,-3.419525146,0.0,0.213714331,0.355430365,"T28M",32,24,24,22,04,01,30,33*93151631
#HEADINGA,COM1_1,0,48.0,FINESTEERING,2123,291323.000,02000000,22a9,15823;SOL_COMPUTED,NARROW_INT,1.001425266,3.482701063,-3.382476807,0.0,0.215047762,0.356896371,"T28M",32,24,24,22,04,01,30,33*a7640149
#HEADINGA,COM1_1,0,48.0,FINESTEERING,2123,291324.000,02000000,22a9,15823;SOL_COMPUTED,NARROW_INT,1.001620531,3.557659388,-3.413513184,0.0,0.217083633,0.359527439,"T28M",32,24,24,22,04,01,30,33*db8799b2
#HEADINGA,COM1_1,0,49.0,FINESTEERING,2123,291325.000,02000000,22a9,15823;SOL_COMPUTED,NARROW_INT,1.000878930,3.524102211,-3.466735840,0.0,0.215341255,0.358324081,"T28M",32,24,24,22,04,01,30,33*ff510e23
#HEADINGA,COM1_1,0,49.5,FINESTEERING,2123,291326.000,02000000,22a9,15823;SOL_COMPUTED,NARROW_INT,1.001875162,3.519179821,-3.424591064,0.0,0.216318026,0.359293073,"T28M",32,24,24,22,04,01,30,33*ee5ea938
#HEADINGA,COM1_1,0,49.5,FINESTEERING,2123,291327.000,02000000,22a9,15823;SOL_COMPUTED,NARROW_INT,1.002619028,3.582596540,-3.541442871,0.0,0.212941363,0.355432838,"T28M",32,24,24,22,04,01,30,33*61a00d38
#HEADINGA,COM1_1,0,49.5,FINESTEERING,2123,291328.000,02000000,22a9,15823;SOL_COMPUTED,NARROW_INT,1.002698064,3.568136692,-3.336364746,0.0,0.211549819,0.353162855,"T28M",32,24,24,22,04,01,30,33*8dadcdf2
#HEADINGA,COM1_1,0,50.0,FINESTEERING,2123,291329.000,02000000,22a9,15823;SOL_COMPUTED,NARROW_INT,1.002483010,3.513549566,-3.328369141,0.0,0.211166784,0.352893680,"T28M",32,24,24,22,04,01,30,33*a645280a
#HEADINGA,COM1_1,0,50.0,FINESTEERING,2123,291330.000,02000000,22a9,15823;SOL_COMPUTED,NARROW_INT,1.002665639,3.593475103,-3.469970703,0.0,0.213094831,0.355452418,"T28M",32,24,24,22,04,01,30,33*5a38e46e
#HEADINGA,COM1_1,0,50.0,FINESTEERING,2123,291331.000,02000000,22a9,15823;SOL_COMPUTED,NARROW_INT,1.003018260,3.528587103,-3.470977783,0.0,0.213989779,0.356042385,"T28M",32,24,24,22,04,01,30,33*48fd6ef3
#HEADINGA,COM1_1,0,50.5,FINESTEERING,2123,291332.000,02000000,22a9,15823;SOL_COMPUTED,NARROW_INT,1.002494454,3.476013184,-3.513946533,0.0,0.211537778,0.353014439,"T28M",32,24,24,22,04,01,30,33*7630c879
#HEADINGA,COM1_1,0,50.5,FINESTEERING,2123,291333.000,02000000,22a9,15823;SOL_COMPUTED,NARROW_INT,1.002708912,3.581879616,-3.406372070,0.0,0.211343884,0.352424443,"T28M",32,24,24,22,04,01,30,33*131b8cc3
#HEADINGA,COM1_1,0,50.5,FINESTEERING,2123,291334.000,02000000,22a9,15823;SOL_COMPUTED,NARROW_INT,1.002645969,3.541588306,-3.296997070,0.0,0.213424832,0.355233371,"T28M",32,24,24,22,04,01,30,33*83afb959
#HEADINGA,COM1_1,0,46.5,FINESTEERING,2123,291335.000,02000000,22a9,15823;SOL_COMPUTED,NARROW_INT,1.002267122,3.533344507,-3.383789063,0.0,0.211497068,0.352372617,"T28M",32,24,24,22,04,01,30,33*8f1038c0
#HEADINGA,COM1_1,0,46.5,FINESTEERING,2123,291336.000,02000000,22a9,15823;SOL_COMPUTED,NARROW_INT,1.002516150,3.558937550,-3.392364502,0.0,0.211751491,0.352471083,"T28M",32,24,24,22,04,01,30,33*f8bee41c
#HEADINGA,COM1_1,0,49.5,FINESTEERING,2123,291337.000,02000000,22a9,15823;SOL_COMPUTED,NARROW_INT,1.003147125,3.556785107,-3.465423584,0.0,0.211278558,0.352298886,"T28M",32,24,24,22,04,01,30,33*d69f0270
#HEADINGA,COM1_1,0,51.0,FINESTEERING,2123,291338.000,02000000,22a9,15823;SOL_COMPUTED,NARROW_INT,1.002563477,3.585501432,-3.526519775,0.0,0.212825894,0.354686409,"T28M",32,24,24,22,04,01,30,33*571d75d6
#HEADINGA,COM1_1,0,51.0,FINESTEERING,2123,291339.000,02000000,22a9,15823;SOL_COMPUTED,NARROW_INT,1.004832149,3.518510580,-3.468017578,0.0,0.211782038,0.352142632,"T28M",32,24,24,22,04,01,30,33*9421da0b
#HEADINGA,COM1_1,0,49.5,FINESTEERING,2123,291340.000,02000000,22a9,15823;SOL_COMPUTED,NARROW_INT,1.003470778,3.474078655,-3.444915771,0.0,0.211259574,0.351574361,"T28M",32,24,24,22,04,01,30,33*19c7056d
#HEADINGA,COM1_1,0,49.5,FINESTEERING,2123,291341.000,02000000,22a9,15823;SOL_COMPUTED,NARROW_INT,1.004125714,3.524295568,-3.360534668,0.0,0.211198866,0.351331055,"T28M",32,24,24,22,04,01,30,33*21bd0bc9
#HEADINGA,COM1_1,0,49.5,FINESTEERING,2123,291342.000,02000000,22a9,15823;SOL_COMPUTED,NARROW_INT,1.003351808,3.509590864,-3.248474121,0.0,0.214959875,0.356572866,"T28M",32,24,24,22,04,01,30,33*229b27cd
#HEADINGA,COM1_1,0,49.5,FINESTEERING,2123,291343.000,02000000,22a9,15823;SOL_COMPUTED,NARROW_INT,1.003275394,3.525997162,-3.328887939,0.0,0.213870063,0.356283873,"T28M",32,24,24,22,04,01,30,33*6bf5c993
#HEADINGA,COM1_1,0,48.0,FINESTEERING,2123,291344.000,02000000,22a9,15823;SOL_COMPUTED,NARROW_INT,1.003455043,3.450022697,-3.224884033,0.0,0.214418501,0.355603427,"T28M",32,24,24,22,04,01,30,33*f98c8b51
#HEADINGA,COM1_1,0,47.5,FINESTEERING,2123,291345.000,02000000,22a9,15823;SOL_COMPUTED,NARROW_INT,1.002386808,3.470039606,-3.345733643,0.0,0.211821705,0.353301138,"T28M",32,24,24,22,04,01,30,33*974eb65a
#HEADINGA,COM1_1,0,48.5,FINESTEERING,2123,291347.000,02000000,22a9,15823;SOL_COMPUTED,NARROW_INT,1.001484394,3.427487612,-3.315917969,0.0,0.214740828,0.357003719,"T28M",32,24,24,22,04,01,30,33*d8fb5e14
#HEADINGA,COM1_1,0,48.5,FINESTEERING,2123,291348.000,02000000,22a9,15823;SOL_COMPUTED,NARROW_INT,1.003853440,3.433112144,-3.389038086,0.0,0.213300571,0.353998333,"T28M",32,24,24,22,04,01,30,33*32f9cbd1
#HEADINGA,COM1_1,0,49.5,FINESTEERING,2123,291349.000,02000000,22a9,15823;SOL_COMPUTED,NARROW_INT,1.003384233,3.453877687,-3.317657471,0.0,0.212690756,0.353534907,"T28M",32,24,24,22,04,01,30,33*468e3d99
#HEADINGA,COM1_1,0,47.5,FINESTEERING,2123,291350.000,02000000,22a9,15823;SOL_COMPUTED,NARROW_INT,1.002303481,3.459430933,-3.324676514,0.0,0.212549448,0.353877395,"T28M",32,24,24,22,04,01,30,33*6d6afb2f
#HEADINGA,COM1_1,0,47.5,FINESTEERING,2123,291351.000,02000000,22a9,15823;SOL_COMPUTED,NARROW_INT,1.003116131,3.486233950,-3.515991211,0.0,0.209661499,0.351105690,"T28M",32,24,24,22,04,01,30,33*abb6f2d5
#HEADINGA,COM1_1,0,49.5,FINESTEERING,2123,291352.000,02000000,22a9,15823;SOL_COMPUTED,NARROW_INT,1.001716495,3.440603256,-3.293365479,0.0,0.211678833,0.353229880,"T28M",32,24,24,22,04,01,30,33*ba2457f0
#HEADINGA,COM1_1,0,49.5,FINESTEERING,2123,291353.000,02000000,22a9,15823;SOL_COMPUTED,NARROW_INT,1.002713799,3.397033453,-3.330078125,0.0,0.216737762,0.359359354,"T28M",32,24,24,22,04,01,30,33*b9e236ce
#HEADINGA,COM1_1,0,50.0,FINESTEERING,2123,291354.000,02000000,22a9,15823;SOL_COMPUTED,NARROW_INT,1.003919244,3.466202497,-3.582672119,0.0,0.215952769,0.358038574,"T28M",32,24,24,22,04,01,30,33*9ef195cd
#HEADINGA,COM1_1,0,50.0,FINESTEERING,2123,291355.000,02000000,22a9,15823;SOL_COMPUTED,NARROW_INT,1.003832579,3.429116488,-3.562011719,0.0,0.216030613,0.358264565,"T28M",32,24,24,22,04,01,30,33*d261b345
#HEADINGA,COM1_1,0,50.0,FINESTEERING,2123,291356.000,02000000,22a9,15823;SOL_COMPUTED,NARROW_INT,1.003825545,3.417745113,-3.529876709,0.0,0.214492396,0.356611192,"T28M",32,24,24,22,04,01,30,33*a8c9f5fd
#HEADINGA,COM1_1,0,50.5,FINESTEERING,2123,291357.000,02000000,22a9,15823;SOL_COMPUTED,NARROW_INT,1.003536463,3.433333397,-3.658813477,0.0,0.211304650,0.352957428,"T28M",32,24,24,22,04,01,30,33*e782dd40
#HEADINGA,COM1_1,0,52.5,FINESTEERING,2123,291358.000,02000000,22a9,15823;SOL_COMPUTED,NARROW_INT,1.003307819,3.388255119,-3.516693115,0.0,0.212793410,0.354238003,"T28M",32,24,24,22,04,01,30,33*0a012b61
#HEADINGA,COM1_1,0,48.5,FINESTEERING,2123,291359.000,02000000,22a9,15823;SOL_COMPUTED,NARROW_INT,1.001883745,3.448415518,-3.497985840,0.0,0.211021155,0.351999313,"T28M",32,24,24,22,04,01,30,33*9223d9a0
#HEADINGA,COM1_1,0,48.5,FINESTEERING,2123,291360.000,02000000,22a9,15823;SOL_COMPUTED,NARROW_INT,1.001907945,3.396973372,-3.507476807,0.0,0.212831289,0.353870034,"T28M",32,24,24,22,04,01,30,33*9e86141c
#HEADINGA,COM1_1,0,51.0,FINESTEERING,2123,291361.000,02000000,22a9,15823;SOL_COMPUTED,NARROW_INT,1.001178980,3.415103674,-3.377563477,0.0,0.212793946,0.354751796,"T28M",32,24,24,22,04,01,30,33*486cba3c
#HEADINGA,COM1_1,0,52.5,FINESTEERING,2123,291362.000,02000000,22a9,15823;SOL_COMPUTED,NARROW_INT,1.002501488,3.397410631,-3.475341797,0.0,0.211888865,0.352407098,"T28M",32,24,24,22,04,01,30,33*535b455f
#HEADINGA,COM1_1,0,53.5,FINESTEERING,2123,291363.000,02000000,22a9,15823;SOL_COMPUTED,NARROW_INT,1.000802994,3.432664394,-3.364898682,0.0,0.213546380,0.355811179,"T28M",32,24,24,22,04,01,30,33*9e8a26d5
#HEADINGA,COM1_1,0,51.0,FINESTEERING,2123,291364.000,02000000,22a9,15823;SOL_COMPUTED,NARROW_INT,1.002283454,3.452295780,-3.494476318,0.0,0.212535918,0.353599191,"T28M",32,24,24,22,04,01,30,33*35a1cc04
#HEADINGA,COM1_1,0,51.0,FINESTEERING,2123,291365.000,02000000,22a9,15823;SOL_COMPUTED,NARROW_INT,1.001158834,3.450978756,-3.426696777,0.0,0.212798163,0.354559332,"T28M",32,24,24,22,04,01,30,33*2ce9cf6b
#HEADINGA,COM1_1,0,51.0,FINESTEERING,2123,291366.000,02000000,22a9,15823;SOL_COMPUTED,NARROW_INT,1.000014663,3.401357412,-3.391723633,0.0,0.211826324,0.352769852,"T28M",32,24,24,22,04,01,30,33*0cb97105
#HEADINGA,COM1_1,0,52.5,FINESTEERING,2123,291367.000,02000000,22a9,15823;SOL_COMPUTED,NARROW_INT,1.000411391,3.409094334,-3.292938232,0.0,0.214123473,0.354941040,"T28M",32,24,24,22,04,01,30,33*a04a9d2e
#HEADINGA,COM1_1,0,52.5,FINESTEERING,2123,291368.000,02000000,22a9,15823;SOL_COMPUTED,NARROW_INT,1.000988483,3.433893681,-3.381713867,0.0,0.214907736,0.356962293,"T28M",32,24,24,22,04,01,30,33*1999c626
#HEADINGA,COM1_1,0,52.0,FINESTEERING,2123,291369.000,02000000,22a9,15823;SOL_COMPUTED,NARROW_INT,1.000990510,3.375845194,-3.589843750,0.0,0.215357125,0.358305663,"T28M",32,24,24,22,04,01,30,33*59338c86
#HEADINGA,COM1_1,0,50.5,FINESTEERING,2123,291370.000,02000000,22a9,15823;SOL_COMPUTED,NARROW_INT,1.002326608,3.431480408,-3.617279053,0.0,0.213458464,0.355485260,"T28M",32,24,24,22,04,01,30,33*08053cf8
#HEADINGA,COM1_1,0,49.0,FINESTEERING,2123,291372.000,02000000,22a9,15823;SOL_COMPUTED,NARROW_INT,1.001872063,3.408421516,-3.410003662,0.0,0.216425553,0.359343380,"T28M",32,24,24,22,04,01,30,33*6dad8cdc
#HEADINGA,COM1_1,0,48.5,FINESTEERING,2123,291373.000,02000000,22a9,15823;SOL_COMPUTED,NARROW_INT,1.001574516,3.355565548,-3.375885010,0.0,0.213572621,0.356283993,"T28M",32,24,24,22,04,01,30,33*7fc1e6ea
#HEADINGA,COM1_1,0,47.0,FINESTEERING,2123,291374.000,02000000,22a9,15823;SOL_COMPUTED,NARROW_INT,0.999391973,3.357243061,-3.365905762,0.0,0.213878691,0.355228215,"T28M",32,24,24,22,04,01,30,33*ae166a2c
#HEADINGA,COM1_1,0,47.0,FINESTEERING,2123,291375.000,02000000,22a9,15823;SOL_COMPUTED,NARROW_INT,1.001037240,3.382748127,-3.512664795,0.0,0.214557454,0.356374532,"T28M",32,24,24,22,04,01,30,33*ae1923d1
#HEADINGA,COM1_1,0,47.5,FINESTEERING,2123,291376.000,02000000,22a9,15823;SOL_COMPUTED,NARROW_INT,1.001131415,3.426296949,-3.369964600,0.0,0.212163016,0.354039520,"T28M",32,24,24,22,04,01,30,33*9a433192
#HEADINGA,COM1_1,0,46.0,FINESTEERING,2123,291377.000,02000000,22a9,15823;SOL_COMPUTED,NARROW_INT,1.001153469,3.392671108,-3.471130371,0.0,0.212348744,0.353448808,"T28M",32,24,24,22,04,01,30,33*380c483c
#HEADINGA,COM1_1,0,46.0,FINESTEERING,2123,291378.000,02000000,22a9,15823;SOL_COMPUTED,NARROW_INT,1.001559019,3.419471979,-3.530822754,0.0,0.212441653,0.352954805,"T28M",32,24,24,22,04,01,30,33*ee97f2d6
#HEADINGA,COM1_1,0,47.5,FINESTEERING,2123,291379.000,02000000,22a9,15823;SOL_COMPUTED,NARROW_INT,1.001216173,3.360488892,-3.445312500,0.0,0.211170018,0.352395862,"T28M",32,24,24,22,04,01,30,33*7b659541
#HEADINGA,COM1_1,0,47.5,FINESTEERING,2123,291380.000,02000000,22a9,15823;SOL_COMPUTED,NARROW_INT,1.000090122,3.397405863,-3.519836426,0.0,0.214821950,0.357134491,"T28M",32,24,24,22,04,01,30,33*0177291a
#HEADINGA,COM1_1,0,48.5,FINESTEERING,2123,291381.000,02000000,22a9,15823;SOL_COMPUTED,NARROW_INT,1.001242042,3.358188152,-3.552185059,0.0,0.213039249,0.355178386,"T28M",32,24,24,22,04,01,30,33*42c26558
#HEADINGA,COM1_1,0,48.5,FINESTEERING,2123,291382.000,02000000,22a9,15823;SOL_COMPUTED,NARROW_INT,1.001598120,3.368038416,-3.448791504,0.0,0.212355614,0.354219139,"T28M",32,24,24,22,04,01,30,33*bfaec398
#HEADINGA,COM1_1,0,49.5,FINESTEERING,2123,291383.000,02000000,22a9,15823;SOL_COMPUTED,NARROW_INT,1.002411962,3.409896612,-3.388519287,0.0,0.210941672,0.352070153,"T28M",32,24,24,22,04,01,30,33*ad2474c1
#HEADINGA,COM1_1,0,49.5,FINESTEERING,2123,291384.000,02000000,22a9,15823;SOL_COMPUTED,NARROW_INT,1.001828551,3.456860065,-3.481567383,0.0,0.210528150,0.351280749,"T28M",32,24,24,22,04,01,30,33*dfa86c1c
#HEADINGA,COM1_1,0,50.5,FINESTEERING,2123,291385.000,02000000,22a9,15823;SOL_COMPUTED,NARROW_INT,1.002595067,3.403904676,-3.573455811,0.0,0.209864095,0.350271761,"T28M",32,24,24,22,04,01,30,33*1b21eec1
#HEADINGA,COM1_1,0,51.0,FINESTEERING,2123,291386.000,02000000,22a9,15823;SOL_COMPUTED,NARROW_INT,1.002991199,3.412072897,-3.548156738,0.0,0.211538687,0.352511406,"T28M",32,24,24,22,04,01,30,33*d298a307
#HEADINGA,COM1_1,0,49.5,FINESTEERING,2123,291387.000,02000000,22a9,15823;SOL_COMPUTED,NARROW_INT,1.002828479,3.442327738,-3.581970215,0.0,0.211104661,0.352557361,"T28M",32,24,24,22,04,01,30,33*e5b051f0
#HEADINGA,COM1_1,0,49.5,FINESTEERING,2123,291388.000,02000000,22a9,15823;SOL_COMPUTED,NARROW_INT,1.003094792,3.471359253,-3.450347900,0.0,0.210203767,0.349948138,"T28M",32,24,24,22,04,01,30,33*a7ae1d7e
#HEADINGA,COM1_1,0,49.5,FINESTEERING,2123,291389.000,02000000,22a9,15823;SOL_COMPUTED,NARROW_INT,1.004646540,3.378713369,-3.593200684,0.0,0.211180553,0.350717723,"T28M",32,24,24,22,04,01,30,33*88ea953f
#HEADINGA,COM1_1,0,51.0,FINESTEERING,2123,291390.000,02000000,22a9,15823;SOL_COMPUTED,NARROW_INT,1.004641891,3.501653194,-3.309906006,0.0,0.210181460,0.349862516,"T28M",32,24,24,22,04,01,30,33*c57cf82e
#HEADINGA,COM1_1,0,51.5,FINESTEERING,2123,291391.000,02000000,22a9,15823;SOL_COMPUTED,NARROW_INT,1.003860950,3.501807928,-3.425476074,0.0,0.211404264,0.351325065,"T28M",32,24,24,22,04,01,30,33*465d7c88
#HEADINGA,COM1_1,0,49.5,FINESTEERING,2123,291392.000,02000000,22a9,15823;SOL_COMPUTED,NARROW_INT,1.004995465,3.513958931,-3.497528076,0.0,0.211353332,0.351686746,"T28M",32,24,24,22,04,01,30,33*0a00bffc
#HEADINGA,COM1_1,0,49.5,FINESTEERING,2123,291393.000,02000000,22a9,15823;SOL_COMPUTED,NARROW_INT,1.004904270,3.509416342,-3.445770264,0.0,0.213005811,0.353399009,"T28M",32,24,24,22,04,01,30,33*ecce48c3
#HEADINGA,COM1_1,0,50.5,FINESTEERING,2123,291394.000,02000000,22a9,15823;SOL_COMPUTED,NARROW_INT,1.004518151,3.478484154,-3.421783447,0.0,0.211123347,0.350007415,"T28M",32,24,24,22,04,01,30,33*f5fbf2cb
#HEADINGA,COM1_1,0,45.5,FINESTEERING,2123,291395.000,02000000,22a9,15823;SOL_COMPUTED,NARROW_INT,1.004369855,3.526443720,-3.379730225,0.0,0.210670874,0.349791706,"T28M",32,24,24,22,04,01,30,33*15201ca9
#HEADINGA,COM1_1,0,45.5,FINESTEERING,2123,291396.000,02000000,22a9,15823;SOL_COMPUTED,NARROW_INT,1.005686879,3.460766792,-3.510864258,0.0,0.209344983,0.348425955,"T28M",32,24,24,22,04,01,30,33*c7e52e7f
#HEADINGA,COM1_1,0,50.5,FINESTEERING,2123,291397.000,02000000,22a9,15823;SOL_COMPUTED,NARROW_INT,1.004883766,3.482520580,-3.433471680,0.0,0.211283416,0.350428909,"T28M",32,24,24,22,04,01,30,33*6c339f42
#HEADINGA,COM1_1,0,50.0,FINESTEERING,2123,291398.000,02000000,22a9,15823;SOL_COMPUTED,NARROW_INT,1.005005479,3.508984089,-3.356140137,0.0,0.212665349,0.351713836,"T28M",32,24,24,22,04,01,30,33*f67a7e0d
#HEADINGA,COM1_1,0,50.0,FINESTEERING,2123,291399.000,02000000,22a9,15823;SOL_COMPUTED,NARROW_INT,1.004102588,3.451265335,-3.313568115,0.0,0.213884845,0.353448033,"T28M",32,24,24,22,04,01,30,33*8bad1e4e
#HEADINGA,COM1_1,0,52.0,FINESTEERING,2123,291400.000,02000000,22a9,15823;SOL_COMPUTED,NARROW_INT,1.004485369,3.503976107,-3.376434326,0.0,0.212099344,0.350658268,"T28M",32,24,24,22,04,01,30,33*c7cacbf8
#HEADINGA,COM1_1,0,49.0,FINESTEERING,2123,291401.000,02000000,22a9,15823;SOL_COMPUTED,NARROW_INT,1.003914118,3.485626936,-3.275482178,0.0,0.212007657,0.350653678,"T28M",32,24,24,22,04,01,30,33*3475704c
#HEADINGA,COM1_1,0,49.0,FINESTEERING,2123,291402.000,02000000,22a9,15823;SOL_COMPUTED,NARROW_INT,1.004121184,3.520528793,-3.425140381,0.0,0.211106703,0.348890930,"T28M",32,24,24,22,04,01,30,33*087b2396
#HEADINGA,COM1_1,0,49.5,FINESTEERING,2123,291403.000,02000000,22a9,15823;SOL_COMPUTED,NARROW_INT,1.004298329,3.495565176,-3.380004883,0.0,0.216690645,0.357118905,"T28M",32,24,24,22,04,01,30,33*b8887387
#HEADINGA,COM1_1,0,50.0,FINESTEERING,2123,291404.000,02000000,22a9,15823;SOL_COMPUTED,NARROW_INT,1.004910350,3.552373171,-3.546142578,0.0,0.216453567,0.355618417,"T28M",32,24,24,22,04,01,30,33*409810c4
#HEADINGA,COM1_1,0,50.0,FINESTEERING,2123,291405.000,02000000,22a9,15823;SOL_COMPUTED,NARROW_INT,1.003672481,3.522029877,-3.495574951,0.0,0.213017389,0.350964457,"T28M",32,24,24,22,04,01,30,33*78fa145a
#HEADINGA,COM1_1,0,50.0,FINESTEERING,2123,291406.000,02000000,22a9,15823;SOL_COMPUTED,NARROW_INT,1.003732681,3.519936562,-3.556732178,0.0,0.211768657,0.350248277,"T28M",32,24,24,22,04,01,30,33*00809301
#HEADINGA,COM1_1,0,50.0,FINESTEERING,2123,291407.000,02000000,22a9,15823;SOL_COMPUTED,NARROW_INT,1.002978802,3.493054867,-3.418975830,0.0,0.216237053,0.357340068,"T28M",32,24,24,22,04,01,30,33*ece39213
#HEADINGA,COM1_1,0,49.5,FINESTEERING,2123,291408.000,02000000,22a9,15823;SOL_COMPUTED,NARROW_INT,1.005023003,3.478020668,-3.554779053,0.0,0.212896451,0.352457166,"T28M",32,24,24,22,04,01,30,33*4b908d36
#HEADINGA,COM1_1,0,49.5,FINESTEERING,2123,291409.000,02000000,22a9,15823;SOL_COMPUTED,NARROW_INT,1.004127622,3.457399368,-3.402709961,0.0,0.213365063,0.353152722,"T28M",32,24,24,22,04,01,30,33*0aa31718
#HEADINGA,COM1_1,0,50.0,FINESTEERING,2123,291410.000,02000000,22a9,15823;SOL_COMPUTED,NARROW_INT,1.003102899,3.453902721,-3.422760010,0.0,0.213470340,0.353387147,"T28M",32,24,24,22,04,01,30,33*d1bd30da
#HEADINGA,COM1_1,0,50.0,FINESTEERING,2123,291411.000,02000000,22a9,15823;SOL_COMPUTED,NARROW_INT,1.001948833,3.483033419,-3.509429932,0.0,0.213504568,0.352853894,"T28M",32,24,24,22,04,01,30,33*3fc02b91
#HEADINGA,COM1_1,0,50.0,FINESTEERING,2123,291412.000,02000000,22a9,15823;SOL_COMPUTED,NARROW_INT,1.004121423,3.436685085,-3.445922852,0.0,0.211586744,0.349833906,"T28M",32,24,24,22,04,01,30,33*fd8ecce1
#HEADINGA,COM1_1,0,50.5,FINESTEERING,2123,291413.000,02000000,22a9,15823;SOL_COMPUTED,NARROW_INT,1.004148006,3.499349356,-3.339233398,0.0,0.211485565,0.351036102,"T28M",32,24,24,22,04,01,30,33*77180802
#HEADINGA,COM1_1,0,50.5,FINESTEERING,2123,291414.000,02000000,22a9,15823;SOL_COMPUTED,NARROW_INT,1.004500866,3.472419262,-3.472015381,0.0,0.214356005,0.354459286,"T28M",32,24,24,22,04,01,30,33*b5d187a2
#HEADINGA,COM1_1,0,51.0,FINESTEERING,2123,291415.000,02000000,22a9,15823;SOL_COMPUTED,NARROW_INT,1.005064368,3.502329588,-3.392486572,0.0,0.212477431,0.351519763,"T28M",32,24,24,22,04,01,30,33*d79faf97
#HEADINGA,COM1_1,0,48.0,FINESTEERING,2123,291416.000,02000000,22a9,15823;SOL_COMPUTED,NARROW_INT,1.004909754,3.481963634,-3.507385254,0.0,0.212612778,0.350882679,"T28M",32,24,24,22,04,01,30,33*0489aa7b
#HEADINGA,COM1_1,0,52.0,FINESTEERING,2123,291418.000,02000000,22a9,15823;SOL_COMPUTED,NARROW_INT,1.003889799,3.470394850,-3.498016357,0.0,0.213963017,0.351992041,"T28M",32,24,24,22,04,01,30,33*98736878
#HEADINGA,COM1_1,0,47.0,FINESTEERING,2123,291419.000,02000000,22a9,15823;SOL_COMPUTED,NARROW_INT,1.003069520,3.526950359,-3.605133057,0.0,0.211323142,0.350262165,"T28M",32,24,24,22,04,01,30,33*b2ac5b73
#HEADINGA,COM1_1,0,47.0,FINESTEERING,2123,291420.000,02000000,22a9,15823;SOL_COMPUTED,NARROW_INT,1.003674746,3.427687645,-3.567504883,0.0,0.213908076,0.354099005,"T28M",32,24,24,22,04,01,30,33*2bd322f8
#HEADINGA,COM1_1,0,50.0,FINESTEERING,2123,291421.000,02000000,22a9,15823;SOL_COMPUTED,NARROW_INT,1.003295898,3.491863728,-3.653472900,0.0,0.213801026,0.353143901,"T28M",32,24,24,22,04,01,30,33*2a7b1e4e
#HEADINGA,COM1_1,0,49.0,FINESTEERING,2123,291422.000,02000000,22a9,15823;SOL_COMPUTED,NARROW_INT,1.003975034,3.454190969,-3.559722900,0.0,0.211738169,0.349473238,"T28M",32,24,24,22,04,01,30,33*523510fe
#HEADINGA,COM1_1,0,49.0,FINESTEERING,2123,291423.000,02000000,22a9,15823;SOL_COMPUTED,NARROW_INT,1.003252745,3.438154697,-3.536193848,0.0,0.211763635,0.349250704,"T28M",32,24,24,22,04,01,30,33*6e9f0380
#HEADINGA,COM1_1,0,53.0,FINESTEERING,2123,291424.000,02000000,22a9,15823;SOL_COMPUTED,NARROW_INT,1.004778743,3.498806953,-3.620849609,0.0,0.210663348,0.348651052,"T28M",32,24,24,22,04,01,30,33*daf31bda
#HEADINGA,COM1_1,0,50.5,FINESTEERING,2123,291425.000,02000000,22a9,15823;SOL_COMPUTED,NARROW_INT,1.004136324,3.463319063,-3.631072998,0.0,0.213846430,0.352958351,"T28M",32,24,24,22,04,01,30,33*43b312fa
#HEADINGA,COM1_1,0,50.5,FINESTEERING,2123,291426.000,02000000,22a9,15823;SOL_COMPUTED,NARROW_INT,1.004609466,3.412777424,-3.522827148,0.0,0.215014577,0.354118824,"T28M",32,24,24,22,04,01,30,33*fa12a4d5
#HEADINGA,COM1_1,0,51.0,FINESTEERING,2123,291427.000,02000000,22a9,15823;SOL_COMPUTED,NARROW_INT,1.004043341,3.461712360,-3.641143799,0.0,0.213113874,0.351479262,"T28M",32,24,24,22,04,01,30,33*a690b92f
#HEADINGA,COM1_1,0,52.0,FINESTEERING,2123,291428.000,02000000,22a9,15823;SOL_COMPUTED,NARROW_INT,1.004471660,3.487725019,-3.604064941,0.0,0.212588117,0.352081209,"T28M",32,24,24,22,04,01,30,33*3b27fedd
#HEADINGA,COM1_1,0,50.0,FINESTEERING,2123,291429.000,02000000,22a9,15823;SOL_COMPUTED,NARROW_INT,1.004681706,3.469560385,-3.436553955,0.0,0.211512074,0.349809080,"T28M",32,24,24,22,04,01,30,33*fe5520f2
#HEADINGA,COM1_1,0,50.0,FINESTEERING,2123,291430.000,02000000,22a9,15823;SOL_COMPUTED,NARROW_INT,1.005772829,3.455425024,-3.528411865,0.0,0.211258233,0.349609107,"T28M",32,24,24,22,04,01,30,33*b382e3b6
#HEADINGA,COM1_1,0,49.5,FINESTEERING,2123,291431.000,02000000,22a9,15823;SOL_COMPUTED,NARROW_INT,1.004027843,3.415053368,-3.583129883,0.0,0.212150112,0.350067198,"T28M",32,24,24,22,04,01,30,33*b39b2f34
#HEADINGA,COM1_1,0,48.5,FINESTEERING,2123,291432.000,02000000,22a9,15823;SOL_COMPUTED,NARROW_INT,1.005843282,3.439426899,-3.738891602,0.0,0.213233098,0.351406008,"T28M",32,24,24,22,04,01,30,33*fc9b6c23
#HEADINGA,COM1_1,0,48.5,FINESTEERING,2123,291433.000,02000000,22a9,15823;SOL_COMPUTED,NARROW_INT,1.007056832,3.423856497,-3.531768799,0.0,0.211569533,0.347985834,"T28M",32,24,24,22,04,01,30,33*28638d3f
#HEADINGA,COM1_1,0,50.0,FINESTEERING,2123,291434.000,02000000,22a9,15823;SOL_COMPUTED,NARROW_INT,1.006261945,3.412415028,-3.676208496,0.0,0.211790577,0.348447621,"T28M",32,24,24,22,04,01,30,33*e2d0c543
#HEADINGA,COM1_1,0,50.0,FINESTEERING,2123,291435.000,02000000,22a9,15823;SOL_COMPUTED,NARROW_INT,1.004510283,3.483049870,-3.700531006,0.0,0.211819157,0.350634724,"T28M",31,24,24,22,04,01,30,33*8c9fbcdb
#HEADINGA,COM1_1,0,51.5,FINESTEERING,2123,291436.000,02000000,22a9,15823;SOL_COMPUTED,NARROW_INT,1.004854321,3.452154636,-3.847015381,0.0,0.211582497,0.350847900,"T28M",32,24,24,22,04,01,30,33*2287cd7e
#HEADINGA,COM1_1,0,50.0,FINESTEERING,2123,291437.000,02000000,22a9,15823;SOL_COMPUTED,NARROW_INT,1.003331661,3.485991716,-3.806976318,0.0,0.211424977,0.349494159,"T28M",32,24,24,22,04,01,30,33*fb4928bb
#HEADINGA,COM1_1,0,50.0,FINESTEERING,2123,291438.000,02000000,22a9,15823;SOL_COMPUTED,NARROW_INT,1.003434181,3.422447920,-3.707336426,0.0,0.215125456,0.354400814,"T28M",32,24,24,22,04,01,30,33*fceccc94
#HEADINGA,COM1_1,0,52.5,FINESTEERING,2123,291439.000,02000000,22a9,15823;SOL_COMPUTED,NARROW_INT,1.003326058,3.421107531,-3.704467773,0.0,0.215581134,0.354797661,"T28M",32,24,24,22,04,01,30,33*5da25290
#HEADINGA,COM1_1,0,52.5,FINESTEERING,2123,291440.000,02000000,22a9,15823;SOL_COMPUTED,NARROW_INT,1.003425479,3.456779718,-3.811676025,0.0,0.217103094,0.356248319,"T28M",32,24,24,22,04,01,30,33*45be2954
#HEADINGA,COM1_1,0,50.5,FINESTEERING,2123,291441.000,02000000,22a9,15823;SOL_COMPUTED,NARROW_INT,1.003887773,3.416073561,-3.792388916,0.0,0.212866113,0.350815982,"T28M",32,24,24,22,04,01,30,33*b7254a4a
#HEADINGA,COM1_1,0,50.5,FINESTEERING,2123,291442.000,02000000,22a9,15823;SOL_COMPUTED,NARROW_INT,1.002774239,3.460195303,-3.860107422,0.0,0.214844763,0.354708433,"T28M",32,24,24,22,04,01,30,33*c76d8a2c
#HEADINGA,COM1_1,0,54.0,FINESTEERING,2123,291443.000,02000000,22a9,15823;SOL_COMPUTED,NARROW_INT,1.003288031,3.464291334,-3.809906006,0.0,0.211794972,0.350704253,"T28M",32,24,24,22,04,01,30,33*11a6597c
#HEADINGA,COM1_1,0,54.0,FINESTEERING,2123,291444.000,02000000,22a9,15823;SOL_COMPUTED,NARROW_INT,1.004035473,3.479582548,-3.789733887,0.0,0.214335546,0.354029834,"T28M",32,24,24,22,04,01,30,33*da58a5ee
#HEADINGA,COM1_1,0,53.5,FINESTEERING,2123,291445.000,02000000,22a9,15823;SOL_COMPUTED,NARROW_INT,1.003298879,3.479584694,-3.878021240,0.0,0.214418262,0.353643566,"T28M",32,24,24,22,04,01,30,33*01b0e1c6
#HEADINGA,COM1_1,0,52.0,FINESTEERING,2123,291446.000,02000000,22a9,15823;SOL_COMPUTED,NARROW_INT,1.004149437,3.531740189,-3.880065918,0.0,0.211517364,0.350458592,"T28M",32,24,24,22,04,01,30,33*8fab5b03
#HEADINGA,COM1_1,0,51.0,FINESTEERING,2123,291447.000,02000000,22a9,15823;SOL_COMPUTED,NARROW_INT,1.003239036,3.492848396,-3.893859863,0.0,0.212115318,0.350263327,"T28M",32,24,24,22,04,01,30,33*861b01e8
#HEADINGA,COM1_1,0,51.0,FINESTEERING,2123,291448.000,02000000,22a9,15823;SOL_COMPUTED,NARROW_INT,1.003567696,3.534032583,-3.838287354,0.0,0.212672621,0.351950824,"T28M",32,24,24,22,04,01,30,33*fb5d1162
#HEADINGA,COM1_1,0,50.5,FINESTEERING,2123,291449.000,02000000,22a9,15823;SOL_COMPUTED,NARROW_INT,1.004606724,3.569534540,-3.801269531,0.0,0.212840438,0.351344913,"T28M",32,24,24,22,04,01,30,33*679a14a6
#HEADINGA,COM1_1,0,50.5,FINESTEERING,2123,291450.000,02000000,22a9,15823;SOL_COMPUTED,NARROW_INT,1.004041553,3.514423847,-3.807464600,0.0,0.213819563,0.353560239,"T28M",32,24,24,22,04,01,30,33*caf38076
#HEADINGA,COM1_1,0,51.5,FINESTEERING,2123,291451.000,02000000,22a9,15823;SOL_COMPUTED,NARROW_INT,1.002651691,3.419420242,-3.730377197,0.0,0.215414464,0.355178595,"T28M",32,24,24,22,04,01,30,33*68a5043f
#HEADINGA,COM1_1,0,50.0,FINESTEERING,2123,291452.000,02000000,22a9,15823;SOL_COMPUTED,NARROW_INT,1.002695203,3.415252209,-3.851745605,0.0,0.213674784,0.353087038,"T28M",32,24,24,22,04,01,30,33*98dd4aaf
#HEADINGA,COM1_1,0,50.0,FINESTEERING,2123,291453.000,02000000,22a9,15823;SOL_COMPUTED,NARROW_INT,1.003360152,3.494918823,-3.651733398,0.0,0.215282962,0.355170369,"T28M",32,24,24,22,04,01,30,33*82642a36
#HEADINGA,COM1_1,0,50.5,FINESTEERING,2123,291454.000,02000000,22a9,15823;SOL_COMPUTED,NARROW_INT,1.002642512,3.489803314,-3.591613770,0.0,0.213123277,0.352020890,"T28M",32,24,24,22,04,01,30,33*d03d560b
#HEADINGA,COM1_1,0,48.0,FINESTEERING,2123,291455.000,02000000,22a9,15823;SOL_COMPUTED,NARROW_INT,1.001992583,3.463215351,-3.549774170,0.0,0.212660521,0.351844609,"T28M",32,24,24,22,04,01,30,33*f6ff4e8a
#HEADINGA,COM1_1,0,48.0,FINESTEERING,2123,291456.000,02000000,22a9,15823;SOL_COMPUTED,NARROW_INT,1.002180457,3.469052553,-3.694793701,0.0,0.214747459,0.354770362,"T28M",32,24,24,22,04,01,30,33*7c5d207d
#HEADINGA,COM1_1,0,51.0,FINESTEERING,2123,291457.000,02000000,22a9,15823;SOL_COMPUTED,NARROW_INT,1.001655936,3.515997171,-3.789947510,0.0,0.214401543,0.354961753,"T28M",32,24,24,22,04,01,30,33*f0878ba5
#HEADINGA,COM1_1,0,51.5,FINESTEERING,2123,291458.000,02000000,22a9,15823;SOL_COMPUTED,NARROW_INT,1.000684977,3.495162964,-3.867462158,0.0,0.215142787,0.355357379,"T28M",32,24,24,22,04,01,30,33*3a0c35d0
#HEADINGA,COM1_1,0,50.5,FINESTEERING,2123,291459.000,02000000,22a9,15823;SOL_COMPUTED,NARROW_INT,1.001329184,3.475309610,-3.751068115,0.0,0.213188604,0.352887183,"T28M",32,24,24,22,04,01,30,33*724b80d8
#HEADINGA,COM1_1,0,50.0,FINESTEERING,2123,291460.000,02000000,22a9,15823;SOL_COMPUTED,NARROW_INT,1.001237631,3.522991419,-3.688842773,0.0,0.212102786,0.351406068,"T28M",32,24,24,22,04,01,30,33*ebd1d460
#HEADINGA,COM1_1,0,49.0,FINESTEERING,2123,291461.000,02000000,22a9,15823;SOL_COMPUTED,NARROW_INT,1.001506209,3.531156778,-3.804840088,0.0,0.211493671,0.350239843,"T28M",32,24,24,22,04,01,30,33*a2a3afef
#HEADINGA,COM1_1,0,48.0,FINESTEERING,2123,291462.000,02000000,22a9,15823;SOL_COMPUTED,NARROW_INT,1.001265287,3.498508453,-3.758300781,0.0,0.213451400,0.353240460,"T28M",32,24,24,22,04,01,30,33*5b7e3cd0
#HEADINGA,COM1_1,0,48.0,FINESTEERING,2123,291463.000,02000000,22a9,15823;SOL_COMPUTED,NARROW_INT,1.000755191,3.553973913,-3.771972656,0.0,0.214212701,0.353004873,"T28M",32,24,24,22,04,01,30,33*2d2fd3a8
#HEADINGA,COM1_1,0,49.0,FINESTEERING,2123,291464.000,02000000,22a9,15823;SOL_COMPUTED,NARROW_INT,1.001603603,3.554023504,-3.683502197,0.0,0.217023537,0.357175589,"T28M",32,24,24,22,04,01,30,33*3bb5dbf4
#HEADINGA,COM1_1,0,49.0,FINESTEERING,2123,291465.000,02000000,22a9,15823;SOL_COMPUTED,NARROW_INT,1.001519322,3.543658018,-3.756866455,0.0,0.213462338,0.352163136,"T28M",32,24,24,22,04,01,30,33*9b9de3d8
#HEADINGA,COM1_1,0,50.0,FINESTEERING,2123,291466.000,02000000,22a9,15823;SOL_COMPUTED,NARROW_INT,1.000485659,3.518027782,-3.762390137,0.0,0.215711802,0.355804026,"T28M",32,24,24,22,04,01,30,33*be732cab
#HEADINGA,COM1_1,0,49.0,FINESTEERING,2123,291467.000,02000000,22a9,15823;SOL_COMPUTED,NARROW_INT,1.000664115,3.588351965,-3.974029541,0.0,0.212633193,0.351327211,"T28M",32,24,24,22,04,01,30,33*d29be4e9
#HEADINGA,COM1_1,0,49.0,FINESTEERING,2123,291468.000,02000000,22a9,15823;SOL_COMPUTED,NARROW_INT,0.999944866,3.567281961,-3.874725342,0.0,0.214801058,0.354551643,"T28M",32,24,24,22,04,01,30,33*4c7ba720
#HEADINGA,COM1_1,0,50.5,FINESTEERING,2123,291469.000,02000000,22a9,15823;SOL_COMPUTED,NARROW_INT,1.000852227,3.566900253,-3.791687012,0.0,0.214797854,0.355818242,"T28M",32,24,24,22,04,01,30,33*381ba617
#HEADINGA,COM1_1,0,50.5,FINESTEERING,2123,291470.000,02000000,22a9,15823;SOL_COMPUTED,NARROW_INT,0.999135494,3.557021618,-3.849517822,0.0,0.215427473,0.356344312,"T28M",32,24,24,22,04,01,30,33*7cb0f9ec
#HEADINGA,COM1_1,0,50.5,FINESTEERING,2123,291471.000,02000000,22a9,15823;SOL_COMPUTED,NARROW_INT,1.000399232,3.575688839,-4.066864014,0.0,0.213385627,0.354360044,"T28M",32,24,24,22,04,01,30,33*fcc5e69e
#HEADINGA,COM1_1,0,50.5,FINESTEERING,2123,291472.000,02000000,22a9,15823;SOL_COMPUTED,NARROW_INT,1.001307726,3.627088070,-3.972045898,0.0,0.213712618,0.353388250,"T28M",32,24,24,22,04,01,30,33*25e6cf79
#HEADINGA,COM1_1,0,50.5,FINESTEERING,2123,291473.000,02000000,22a9,15823;SOL_COMPUTED,NARROW_INT,0.999144793,3.646111250,-4.026702881,0.0,0.215102628,0.356032103,"T28M",32,24,24,22,04,01,30,33*5114eda5
#HEADINGA,COM1_1,0,50.5,FINESTEERING,2123,291474.000,02000000,22a9,15823;SOL_COMPUTED,NARROW_INT,0.999701977,3.596627235,-3.826202393,0.0,0.213063568,0.353396595,"T28M",32,24,24,22,04,01,30,33*4838486c
#HEADINGA,COM1_1,0,50.5,FINESTEERING,2123,291475.000,02000000,22a9,15823;SOL_COMPUTED,NARROW_INT,1.001050234,3.528746605,-3.875732422,0.0,0.213075832,0.354255408,"T28M",32,24,24,22,04,01,30,33*e1045993
#HEADINGA,COM1_1,0,50.5,FINESTEERING,2123,291476.000,02000000,22a9,15823;SOL_COMPUTED,NARROW_INT,0.999674737,3.566478491,-3.711090088,0.0,0.212941363,0.353039086,"T28M",32,24,24,22,04,01,30,33*2fa8105e
#HEADINGA,COM1_1,0,50.5,FINESTEERING,2123,291477.000,02000000,22a9,15823;SOL_COMPUTED,NARROW_INT,1.000604272,3.585725546,-3.970184326,0.0,0.215275392,0.356168538,"T28M",32,24,24,22,04,01,30,33*52a112af
#HEADINGA,COM1_1,0,52.0,FINESTEERING,2123,291478.000,02000000,22a9,15823;SOL_COMPUTED,NARROW_INT,1.000126600,3.623281717,-3.786163330,0.0,0.215832472,0.355423361,"T28M",32,24,24,22,04,01,30,33*9bcc68d1
#HEADINGA,COM1_1,0,52.0,FINESTEERING,2123,291479.000,02000000,22a9,15823;SOL_COMPUTED,NARROW_INT,1.000477076,3.636795282,-3.656433105,0.0,0.213272423,0.353261232,"T28M",32,24,24,22,04,01,30,33*3eaec661
#HEADINGA,COM1_1,0,52.0,FINESTEERING,2123,291480.000,02000000,22a9,15823;SOL_COMPUTED,NARROW_INT,1.002021551,3.595782042,-3.802459717,0.0,0.213922724,0.353496522,"T28M",32,24,24,22,04,01,30,33*93ca7b09
#HEADINGA,COM1_1,0,54.0,FINESTEERING,2123,291481.000,02000000,22a9,15823;SOL_COMPUTED,NARROW_INT,0.999800444,3.521591425,-3.983398438,0.0,0.214889333,0.354137778,"T28M",32,24,24,22,04,01,30,33*6353d05e
#HEADINGA,COM1_1,0,51.0,FINESTEERING,2123,291482.000,02000000,22a9,15823;SOL_COMPUTED,NARROW_INT,1.001655936,3.614193439,-3.803680420,0.0,0.218279809,0.357932717,"T28M",32,24,24,22,04,01,30,33*6db65ad4
#HEADINGA,COM1_1,0,51.0,FINESTEERING,2123,291483.000,02000000,22a9,15823;SOL_COMPUTED,NARROW_INT,1.000185370,3.569985151,-3.883026123,0.0,0.214874774,0.354977995,"T28M",32,24,24,22,04,01,30,33*1d8f744b
#HEADINGA,COM1_1,0,53.0,FINESTEERING,2123,291484.000,02000000,22a9,15823;SOL_COMPUTED,NARROW_INT,1.000841498,3.548406124,-3.728973389,0.0,0.212540895,0.353169769,"T28M",32,24,24,22,04,01,30,33*46ebcf17
#HEADINGA,COM1_1,0,51.5,FINESTEERING,2123,291486.000,02000000,22a9,15823;SOL_COMPUTED,NARROW_INT,1.000475407,3.573459625,-3.698120117,0.0,0.213307872,0.352306515,"T28M",32,24,24,22,04,01,30,33*20672237
#HEADINGA,COM1_1,0,52.5,FINESTEERING,2123,291487.000,02000000,22a9,15823;SOL_COMPUTED,NARROW_INT,0.999779105,3.514017344,-3.538238525,0.0,0.214733347,0.354539692,"T28M",32,24,24,22,04,01,30,33*019c7596
#HEADINGA,COM1_1,0,52.5,FINESTEERING,2123,291488.000,02000000,22a9,15823;SOL_COMPUTED,NARROW_INT,1.001661062,3.505218506,-3.642913818,0.0,0.217992842,0.359300733,"T28M",32,24,24,22,04,01,30,33*29471ae0
#HEADINGA,COM1_1,0,53.0,FINESTEERING,2123,291489.000,02000000,22a9,15823;SOL_COMPUTED,NARROW_INT,1.000977039,3.569148302,-3.593170166,0.0,0.215091974,0.355311811,"T28M",32,24,24,22,04,01,30,33*b0a7c55a
#HEADINGA,COM1_1,0,54.0,FINESTEERING,2123,291490.000,02000000,22a9,15823;SOL_COMPUTED,NARROW_INT,1.000376105,3.548890114,-3.621734619,0.0,0.214831054,0.354873002,"T28M",32,24,24,22,04,01,30,33*e641fec2
#HEADINGA,COM1_1,0,50.5,FINESTEERING,2123,291492.000,02000000,22a9,15823;SOL_COMPUTED,NARROW_INT,1.000273347,3.523267508,-3.443847656,0.0,0.212800592,0.352689415,"T28M",32,24,24,22,04,01,30,33*d08dc779
#HEADINGA,COM1_1,0,49.0,FINESTEERING,2123,291493.000,02000000,22a9,15823;SOL_COMPUTED,NARROW_INT,1.000970960,3.518972397,-3.474792480,0.0,0.213493109,0.352431267,"T28M",32,24,24,22,04,01,30,33*f9ce0d6f
#HEADINGA,COM1_1,0,49.0,FINESTEERING,2123,291494.000,02000000,22a9,15823;SOL_COMPUTED,NARROW_INT,1.001963615,3.607379913,-3.607727051,0.0,0.212907061,0.350592226,"T28M",32,24,24,22,04,01,30,33*6dada5d7
#HEADINGA,COM1_1,0,49.5,FINESTEERING,2123,291495.000,02000000,22a9,15823;SOL_COMPUTED,NARROW_INT,1.001405001,3.532349825,-3.623077393,0.0,0.212681904,0.351198584,"T28M",32,24,24,22,04,01,30,33*d5a64bef
#HEADINGA,COM1_1,0,50.0,FINESTEERING,2123,291496.000,02000000,22a9,15823;SOL_COMPUTED,NARROW_INT,1.001794815,3.514899015,-3.455657959,0.0,0.211394086,0.350755960,"T28M",32,24,24,22,04,01,30,33*73c7fef1
#HEADINGA,COM1_1,0,47.5,FINESTEERING,2123,291497.000,02000000,22a9,15823;SOL_COMPUTED,NARROW_INT,1.001692772,3.492050171,-3.517059326,0.0,0.211835131,0.352155715,"T28M",32,24,24,22,04,01,30,33*e01af0fe
#HEADINGA,COM1_1,0,47.5,FINESTEERING,2123,291498.000,02000000,22a9,15823;SOL_COMPUTED,NARROW_INT,1.001071811,3.475158930,-3.588378906,0.0,0.213731200,0.353259683,"T28M",32,24,24,22,04,01,30,33*1750cb9f
#HEADINGA,COM1_1,0,52.0,FINESTEERING,2123,291499.000,02000000,22a9,15823;SOL_COMPUTED,NARROW_INT,1.000975966,3.494554043,-3.572052002,0.0,0.215796158,0.356983244,"T28M",32,24,24,22,04,01,30,33*f642ee15
#HEADINGA,COM1_1,0,52.5,FINESTEERING,2123,291500.000,02000000,22a9,15823;SOL_COMPUTED,NARROW_INT,0.999863863,3.439495325,-3.523406982,0.0,0.213898763,0.355704069,"T28M",32,24,24,22,04,01,30,33*738ca76a
#HEADINGA,COM1_1,0,51.5,FINESTEERING,2123,291501.000,02000000,22a9,15823;SOL_COMPUTED,NARROW_INT,1.000248075,3.447245836,-3.459472656,0.0,0.213266909,0.354684502,"T28M",32,24,24,22,04,01,30,33*4ab5e2e2
#HEADINGA,COM1_1,0,51.5,FINESTEERING,2123,291502.000,02000000,22a9,15823;SOL_COMPUTED,NARROW_INT,1.000335217,3.392012358,-3.584350586,0.0,0.214187533,0.354504108,"T28M",32,24,24,22,04,01,30,33*0fe55b66
#HEADINGA,COM1_1,0,49.5,FINESTEERING,2123,291503.000,02000000,22a9,15823;SOL_COMPUTED,NARROW_INT,0.999916613,3.444578648,-3.561889648,0.0,0.214320853,0.355411917,"T28M",32,24,24,22,04,01,30,33*5ac852f7
#HEADINGA,COM1_1,0,49.5,FINESTEERING,2123,291504.000,02000000,22a9,15823;SOL_COMPUTED,NARROW_INT,0.999785066,3.338311672,-3.795227051,0.0,0.217000693,0.359234512,"T28M",32,24,24,22,04,01,30,33*d079a6e0
#HEADINGA,COM1_1,0,49.5,FINESTEERING,2123,291505.000,02000000,22a9,15823;SOL_COMPUTED,NARROW_INT,1.000886083,3.371403217,-3.672363281,0.0,0.214635834,0.356746703,"T28M",32,24,24,22,04,01,30,33*5435d590
#HEADINGA,COM1_1,0,53.0,FINESTEERING,2123,291506.000,02000000,22a9,15823;SOL_COMPUTED,NARROW_INT,1.001097560,3.435314894,-3.530822754,0.0,0.214800090,0.357597560,"T28M",32,24,24,22,04,01,30,33*14b89e1d
#HEADINGA,COM1_1,0,54.5,FINESTEERING,2123,291507.000,02000000,22a9,15823;SOL_COMPUTED,NARROW_INT,0.999813080,3.350440264,-3.672180176,0.0,0.215111747,0.357613325,"T28M",32,24,24,22,04,01,30,33*b8c1eb2a
#HEADINGA,COM1_1,0,54.5,FINESTEERING,2123,291508.000,02000000,22a9,15823;SOL_COMPUTED,NARROW_INT,1.001095295,3.317572832,-3.599761963,0.0,0.212480024,0.354577720,"T28M",32,24,24,22,04,01,30,33*c40405e3
#HEADINGA,COM1_1,0,51.5,FINESTEERING,2123,291509.000,02000000,22a9,15823;SOL_COMPUTED,NARROW_INT,1.000996232,3.352103949,-3.675292969,0.0,0.215177029,0.359686613,"T28M",32,24,24,22,04,01,30,33*f97e20ba
#HEADINGA,COM1_1,0,51.5,FINESTEERING,2123,291510.000,02000000,22a9,15823;SOL_COMPUTED,NARROW_INT,1.001492858,3.342329264,-3.464813232,0.0,0.217242017,0.361160785,"T28M",32,24,24,22,04,01,30,33*270ab143
#HEADINGA,COM1_1,0,51.5,FINESTEERING,2123,291511.000,02000000,22a9,15823;SOL_COMPUTED,NARROW_INT,1.001754165,3.291939020,-3.559478760,0.0,0.215553418,0.358989924,"T28M",32,24,24,22,04,01,30,33*a070faf7
#HEADINGA,COM1_1,0,51.5,FINESTEERING,2123,291512.000,02000000,22a9,15823;SOL_COMPUTED,NARROW_INT,1.000173569,3.357624054,-3.527618408,0.0,0.220661238,0.366755694,"T28M",32,24,24,22,04,01,30,33*c818c248
#HEADINGA,COM1_1,0,53.0,FINESTEERING,2123,291513.000,02000000,22a9,15823;SOL_COMPUTED,NARROW_INT,1.000334978,3.335365772,-3.583984375,0.0,0.220284611,0.364458084,"T28M",32,24,24,22,04,01,30,33*e753246a
#HEADINGA,COM1_1,0,52.5,FINESTEERING,2123,291514.000,02000000,22a9,15823;SOL_COMPUTED,NARROW_INT,1.000411391,3.294394016,-3.560852051,0.0,0.217864841,0.359174103,"T28M",32,24,24,22,04,01,30,33*46020f37
#HEADINGA,COM1_1,0,47.0,FINESTEERING,2123,291515.000,02000000,22a9,15823;SOL_COMPUTED,NARROW_INT,0.999574661,3.296151161,-3.578216553,0.0,0.216341391,0.357565552,"T28M",32,24,24,22,04,01,30,33*4a2e5171
#HEADINGA,COM1_1,0,47.0,FINESTEERING,2123,291516.000,02000000,22a9,15823;SOL_COMPUTED,NARROW_INT,1.001028657,3.348441839,-3.589416504,0.0,0.215793908,0.355765522,"T28M",32,24,24,22,04,01,30,33*15bcdaa0
#HEADINGA,COM1_1,0,53.0,FINESTEERING,2123,291517.000,02000000,22a9,15823;SOL_COMPUTED,NARROW_INT,1.002278447,3.291998625,-3.570892334,0.0,0.213798255,0.354438961,"T28M",32,24,24,22,04,01,30,33*8a42bee2
#HEADINGA,COM1_1,0,55.5,FINESTEERING,2123,291518.000,02000000,22a9,15823;SOL_COMPUTED,NARROW_INT,1.000740170,3.297837019,-3.456817627,0.0,0.213198602,0.353827357,"T28M",32,24,24,22,04,01,30,33*728d24e8
#HEADINGA,COM1_1,0,54.0,FINESTEERING,2123,291519.000,02000000,22a9,15823;SOL_COMPUTED,NARROW_INT,1.002085328,3.328812838,-3.501770020,0.0,0.215198681,0.354673088,"T28M",32,24,24,22,04,01,30,33*ae87c7f4
#HEADINGA,COM1_1,0,54.0,FINESTEERING,2123,291520.000,02000000,22a9,15823;SOL_COMPUTED,NARROW_INT,1.002195358,3.354845047,-3.493988037,0.0,0.217183381,0.357467145,"T28M",32,24,24,22,04,01,30,33*c6a13972
#HEADINGA,COM1_1,0,52.5,FINESTEERING,2123,291521.000,02000000,22a9,15823;SOL_COMPUTED,NARROW_INT,1.002083778,3.336317301,-3.572052002,0.0,0.217825532,0.357579440,"T28M",32,24,24,22,04,01,30,33*452818ef
#HEADINGA,COM1_1,0,52.5,FINESTEERING,2123,291522.000,02000000,22a9,15823;SOL_COMPUTED,NARROW_INT,1.001797318,3.303828239,-3.655364990,0.0,0.214859098,0.353877842,"T28M",32,24,24,22,04,01,30,33*416d59fd
#HEADINGA,COM1_1,0,53.5,FINESTEERING,2123,291523.000,02000000,22a9,15823;SOL_COMPUTED,NARROW_INT,1.003211856,3.303908110,-3.684783936,0.0,0.214111656,0.353573829,"T28M",32,24,24,22,04,01,30,33*80ca829a
#HEADINGA,COM1_1,0,57.0,FINESTEERING,2123,291524.000,02000000,22a9,15823;SOL_COMPUTED,NARROW_INT,1.002765059,3.357114077,-3.629394531,0.0,0.216110572,0.355096698,"T28M",32,24,24,22,04,01,30,33*c585a026
#HEADINGA,COM1_1,0,55.5,FINESTEERING,2123,291525.000,02000000,22a9,15823;SOL_COMPUTED,NARROW_INT,1.003457904,3.324957371,-3.604278564,0.0,0.215989754,0.353310555,"T28M",32,24,24,22,04,01,30,33*2ac3dee0
#HEADINGA,COM1_1,0,53.5,FINESTEERING,2123,291526.000,02000000,22a9,15823;SOL_COMPUTED,NARROW_INT,1.002896547,3.345153570,-3.571258545,0.0,0.215511903,0.355860353,"T28M",32,24,24,22,04,01,30,33*495a2369
#HEADINGA,COM1_1,0,53.5,FINESTEERING,2123,291527.000,02000000,22a9,15823;SOL_COMPUTED,NARROW_INT,1.002420306,3.162998915,-3.559082031,0.0,0.220953733,0.359288514,"T28M",32,24,24,22,04,01,30,33*cf8864ea
#HEADINGA,COM1_1,0,55.0,FINESTEERING,2123,291528.000,02000000,22a9,15823;SOL_COMPUTED,NARROW_INT,1.002715468,3.271136045,-3.520141602,0.0,0.218847394,0.357413858,"T28M",32,24,24,22,04,01,30,33*559c7609
#HEADINGA,COM1_1,0,55.5,FINESTEERING,2123,291529.000,02000000,22a9,15823;SOL_COMPUTED,NARROW_INT,1.003440261,3.261846781,-3.668975830,0.0,0.220299467,0.359088451,"T28M",32,24,24,22,04,01,30,33*d39a700f
#HEADINGA,COM1_1,0,55.5,FINESTEERING,2123,291530.000,02000000,22a9,15823;SOL_COMPUTED,NARROW_INT,1.003640056,3.326981306,-3.682708740,0.0,0.219175562,0.357726038,"T28M",32,24,24,22,04,01,30,33*431e2812
#HEADINGA,COM1_1,0,55.5,FINESTEERING,2123,291532.000,02000000,22a9,15823;SOL_COMPUTED,NARROW_INT,1.002778769,3.265531063,-3.617675781,0.0,0.218184456,0.356180578,"T28M",32,24,24,22,04,01,30,33*0be0d013
#HEADINGA,COM1_1,0,54.0,FINESTEERING,2123,291533.000,02000000,22a9,15823;SOL_COMPUTED,NARROW_INT,1.001761675,3.200582266,-3.670715332,0.0,0.220032588,0.356977642,"T28M",32,24,24,22,04,01,30,33*dc3a59e5
#HEADINGA,COM1_1,0,54.0,FINESTEERING,2123,291534.000,02000000,22a9,15823;SOL_COMPUTED,NARROW_INT,1.001894832,3.337711811,-3.677886963,0.0,0.218777165,0.358330548,"T28M",32,24,24,22,04,01,30,33*d156b2b8
#HEADINGA,COM1_1,0,53.0,FINESTEERING,2123,291535.000,02000000,22a9,15823;SOL_COMPUTED,NARROW_INT,1.002337217,3.281076431,-3.722229004,0.0,0.222907752,0.364380240,"T28M",32,24,24,22,04,01,30,33*da433685
#HEADINGA,COM1_1,0,53.0,FINESTEERING,2123,291536.000,02000000,22a9,15823;SOL_COMPUTED,NARROW_INT,1.003386259,3.312315702,-3.691345215,0.0,0.216897324,0.357239455,"T28M",32,24,24,22,04,01,30,33*1eb0539e
#HEADINGA,COM1_1,0,53.0,FINESTEERING,2123,291537.000,02000000,22a9,15823;SOL_COMPUTED,NARROW_INT,1.002591133,3.335145473,-3.733245850,0.0,0.216690570,0.356236190,"T28M",32,24,24,22,04,01,30,33*facdda6a
#HEADINGA,COM1_1,0,54.5,FINESTEERING,2123,291538.000,02000000,22a9,15823;SOL_COMPUTED,NARROW_INT,1.003269553,3.255338192,-3.618164063,0.0,0.216688260,0.355460048,"T28M",32,24,24,22,04,01,30,33*2ff223c7
#HEADINGA,COM1_1,0,53.0,FINESTEERING,2123,291539.000,02000000,22a9,15823;SOL_COMPUTED,NARROW_INT,1.002812147,3.207164526,-3.680877686,0.0,0.220324084,0.360549778,"T28M",32,24,24,22,04,01,30,33*62df06bb
#HEADINGA,COM1_1,0,53.0,FINESTEERING,2123,291540.000,02000000,22a9,15823;SOL_COMPUTED,NARROW_INT,1.001970887,3.217230797,-3.664855957,0.0,0.220581859,0.359896332,"T28M",32,24,24,22,04,01,30,33*946fbedc
#HEADINGA,COM1_1,0,56.0,FINESTEERING,2123,291541.000,02000000,22a9,15823;SOL_COMPUTED,NARROW_INT,1.001981854,3.205852032,-3.584228516,0.0,0.221058443,0.360976219,"T28M",31,24,24,22,04,01,30,33*50547654
#HEADINGA,COM1_1,0,55.5,FINESTEERING,2123,291542.000,02000000,22a9,15823;SOL_COMPUTED,NARROW_INT,1.002506852,3.251307011,-3.605621338,0.0,0.224904776,0.365299493,"T28M",32,24,24,22,04,01,30,33*10dea311
